{"id":"oc4ids-gx3fo2-000010","updated":"2020-04-09T13:40:56.2710423-05:00","title":"Reconversión Hospitalaria del Hospital Tierra y Libertad (COVID-19)","description":" ","status":"implementation","period":{"startDate":"2020-04-01T00:00:00","endDate":"2020-04-30T00:00:00","maxExtentDate":"2020-04-30T00:00:00","durationInDays":29},"sector":[],"purpose":" ","type":"replacement","locations":[{"id":"739","description":"Avenida Rodrigo Gómez No. 7001 Esquina Avenida Almazán, Col. Carmen Serdán, Latitud 25.740377, Longitud -100.342049","geometry":{"type":"Point","coordinates":[25.740311950703351,-100.3422583829755]},"address":{"locality":"Monterrey","region":"Nuevo León","countryName":"México"},"uri":"http://si.nl.gob.mx/concurso/657"},{"id":"740","description":"Avenida Rodrigo Gómez No. 7001 Esquina Avenida Almazán, Col. Carmen Serdán, Latitud 25.740377, Longitud -100.342049, en el Municipio de Monterrey, N.L. ","geometry":{"type":"Point","coordinates":[25.740293876228936,-100.34216692581424]},"address":{"locality":"Monterrey","region":"Nuevo León","countryName":"México"},"uri":"http://si.nl.gob.mx/concurso/658"},{"id":"741","description":"Avenida Rodrigo Gómez No. 7001 Esquina Avenida Almazán, Col. Carmen Serdán, Latitud 25.740377, Longitud -100.342049, en el Municipio de Monterrey, N.L. ","geometry":{"type":"Point","coordinates":[25.740271327823745,-100.34215501962441]},"address":{"locality":"Monterrey","region":"Nuevo León","countryName":"México"},"uri":"http://si.nl.gob.mx/concurso/659"},{"id":"742","description":"Avenida Rodrigo Gómez No. 7001 Esquina Avenida Almazán, Col. Carmen Serdán, Latitud 25.740377, Longitud -100.342049, en el Municipio de Monterrey, N.L. ","geometry":{"type":"Point","coordinates":[25.740284388257336,-100.34214501482268]},"address":{"locality":"Monterrey","region":"Nuevo León","countryName":"México"},"uri":"http://si.nl.gob.mx/concurso/660"},{"id":"743","description":"Avenida Rodrigo Gómez No. 7001 Esquina Avenida Almazán, Col. Carmen Serdán, Latitud 25.740377, Longitud -100.342049, en el Municipio de Monterrey, N.L. ","geometry":{},"address":{"locality":"Monterrey","region":"Nuevo León","countryName":"México"},"uri":"http://si.nl.gob.mx/concurso/661"},{"id":"744","description":"Avenida Rodrigo Gómez No. 7001 Esquina Avenida Almazán, Col. Carmen Serdán, Latitud 25.740377, Longitud -100.342049, en el Municipio de Monterrey, N.L. ","geometry":{},"address":{"locality":"Monterrey","region":"Nuevo León","countryName":"México"},"uri":"http://si.nl.gob.mx/concurso/662"}],"budget":{"amount":{"amount":0.0,"currency":"MXN"}},"parties":[{"name":"Secretaría de Infraestructura","id":"SIASI-000011","identifier":{"scheme":"SIASI","legalName":"SISTEMA INTEGRAL DE ADMINISTRACIÓN DE LA SECRETARÍA DE INFRAESTRUCTURA"},"address":{"streetAddress":"Washigton","locality":"Monterrey","region":"Nuevo León","postalCode":"64000","countryName":"México"},"contactPoint":{"name":"Humberto Torres Padilla","email":"humberto.torres@nuevoleon.gob.mx","telephone":"8120206730","url":"http://si.nl.gob.mx/"},"roles":["procuringEntity"]},{"name":"Secretaría de Finanzas y Tesorería General del Estado","id":"CAGMNL-211113040100001","identifier":{"scheme":"CAGMNL","legalName":"CLASIFICACIÓN ADMINISTRATIVA Y GEOGRÁFICA MUNICIPAL DEL ESTADO DE NUEVO LEON"},"address":{"streetAddress":"Escobedo Sur Piso 3 333","locality":"Monterrey","region":"Nuevo León","postalCode":"64000","countryName":"México"},"contactPoint":{"name":"Carlos Alberto Garza Ibarra","email":"carlos.garza@nuevoleon.gob.mx","telephone":"8120201580","url":"http://www.nl.gob.mx/tesoreria"},"roles":["payer"]},{"name":"CONSTRUCTORA Y URBANIZADORA REGIOMONTANA, S.A. DE C.V.","id":"MX-RFC-CUR950920ER0","identifier":{"scheme":"RFC","id":"CUR950920ER0","legalName":"CONSTRUCTORA Y URBANIZADORA REGIOMONTANA, S.A. DE C.V."},"address":{"streetAddress":"PROLONGACION ALFONSO REYES 2612 24","locality":"MONTERREY","postalCode":"64750","countryName":"México"},"contactPoint":{"name":"CONSTRUCTORA Y URBANIZADORA REGIOMONTANA, S.A. DE C.V.","email":"administracion@regiomontana.com.mx","telephone":"8110990847"},"roles":["tenderer","supplier"]},{"name":"CKT EDIFICACIONES, S.A. DE C.V.","id":"MX-RFC-CED160218FH6","identifier":{"scheme":"RFC","id":"CED160218FH6","legalName":"CKT EDIFICACIONES, S.A. DE C.V."},"address":{"streetAddress":"AVE. CENTRAL  LOTE N.2","locality":"SABINAS HIDALGO","postalCode":"65240","countryName":"México"},"contactPoint":{"name":"CKT EDIFICACIONES, S.A. DE C.V.","email":"gerencia@construktor.org","telephone":"8110633704"},"roles":["tenderer","supplier"]},{"name":"CONSTRUCCIONES DYNAMO, S.A. DE C.V.","id":"MX-RFC-CDY980323MA8","identifier":{"scheme":"RFC","id":"CDY980323MA8","legalName":"CONSTRUCCIONES DYNAMO, S.A. DE C.V."},"address":{"locality":"MONTERREY","postalCode":"64800","countryName":"México"},"contactPoint":{"name":"CONSTRUCCIONES DYNAMO, S.A. DE C.V.","email":"dynamo27@prodigy.net.mx","telephone":"52 81 83550589 "},"roles":["tenderer","supplier"]},{"name":"KAANS ADMINISTRACION, S.A. DE C.V.","id":"MX-RFC-KAD1003298I6","identifier":{"scheme":"RFC","id":"KAD1003298I6","legalName":"KAANS ADMINISTRACION, S.A. DE C.V."},"address":{"streetAddress":"Santa Cristina  1317","locality":"GUADALUPE","postalCode":"67129","countryName":"México"},"contactPoint":{"name":"KAANS ADMINISTRACION, S.A. DE C.V.","email":"lmata@grupokaans.com","telephone":"38493182"},"roles":["tenderer","supplier"]},{"name":"TORDEC, S.A. DE C.V.  ","id":"MX-RFC-TOR050912KD6","identifier":{"scheme":"RFC","id":"TOR050912KD6","legalName":"TORDEC, S.A. DE C.V.  "},"address":{"locality":"SAN PEDRO GARZA GARCÍA","postalCode":"66267","countryName":"México"},"contactPoint":{"name":"TORDEC, S.A. DE C.V.  ","email":"si@nuevoleon.gob.mx"},"roles":["tenderer","supplier"]},{"name":"CONSTRUCTORA Y URBANIZADORA REGIOMONTANA, S.A. DE C.V.","id":"MX-RFC-CUR950920ER0","identifier":{"scheme":"RFC","id":"CUR950920ER0","legalName":"CONSTRUCTORA Y URBANIZADORA REGIOMONTANA, S.A. DE C.V."},"address":{"streetAddress":"PROLONGACION ALFONSO REYES 2612 24","locality":"MONTERREY","postalCode":"64750","countryName":"México"},"contactPoint":{"name":"CONSTRUCTORA Y URBANIZADORA REGIOMONTANA, S.A. DE C.V.","email":"administracion@regiomontana.com.mx","telephone":"8110990847"},"roles":["tenderer","supplier"]},{"name":"Secretaría de Salud","id":"SIASI-000009","identifier":{"scheme":"SIASI","legalName":"SISTEMA INTEGRAL DE ADMINISTRACIÓN DE LA SECRETARÍA DE INFRAESTRUCTURA"},"address":{"streetAddress":"Washington","locality":"Monterrey","region":"Nuevo León","postalCode":"64010","countryName":"México"},"contactPoint":{"name":"Jesús Salvador Pérez Rodríguez","email":"salvador.perez @nuevoleon.gob.mx","telephone":"8120206730","url":"http://www.nl.gob.mx/dependencias"},"roles":["buyer"]},{"name":"Secretaría de Salud","id":"SIASI-000009","identifier":{"scheme":"SIASI","legalName":"SISTEMA INTEGRAL DE ADMINISTRACIÓN DE LA SECRETARÍA DE INFRAESTRUCTURA"},"address":{"streetAddress":"Washington","locality":"Monterrey","region":"Nuevo León","postalCode":"64010","countryName":"México"},"contactPoint":{"name":"Jesús Salvador Pérez Rodríguez","email":"salvador.perez @nuevoleon.gob.mx","telephone":"8120206730","url":"http://www.nl.gob.mx/dependencias"},"roles":["buyer"]},{"name":"Secretaría de Salud","id":"SIASI-000009","identifier":{"scheme":"SIASI","legalName":"SISTEMA INTEGRAL DE ADMINISTRACIÓN DE LA SECRETARÍA DE INFRAESTRUCTURA"},"address":{"streetAddress":"Washington","locality":"Monterrey","region":"Nuevo León","postalCode":"64010","countryName":"México"},"contactPoint":{"name":"Jesús Salvador Pérez Rodríguez","email":"salvador.perez @nuevoleon.gob.mx","telephone":"8120206730","url":"http://www.nl.gob.mx/dependencias"},"roles":["buyer"]},{"name":"Secretaría de Salud","id":"SIASI-000009","identifier":{"scheme":"SIASI","legalName":"SISTEMA INTEGRAL DE ADMINISTRACIÓN DE LA SECRETARÍA DE INFRAESTRUCTURA"},"address":{"streetAddress":"Washington","locality":"Monterrey","region":"Nuevo León","postalCode":"64010","countryName":"México"},"contactPoint":{"name":"Jesús Salvador Pérez Rodríguez","email":"salvador.perez @nuevoleon.gob.mx","telephone":"8120206730","url":"http://www.nl.gob.mx/dependencias"},"roles":["buyer"]},{"name":"Secretaría de Salud","id":"SIASI-000009","identifier":{"scheme":"SIASI","legalName":"SISTEMA INTEGRAL DE ADMINISTRACIÓN DE LA SECRETARÍA DE INFRAESTRUCTURA"},"address":{"streetAddress":"Washington","locality":"Monterrey","region":"Nuevo León","postalCode":"64010","countryName":"México"},"contactPoint":{"name":"Jesús Salvador Pérez Rodríguez","email":"salvador.perez @nuevoleon.gob.mx","telephone":"8120206730","url":"http://www.nl.gob.mx/dependencias"},"roles":["buyer"]},{"name":"Secretaría de Salud","id":"SIASI-000009","identifier":{"scheme":"SIASI","legalName":"SISTEMA INTEGRAL DE ADMINISTRACIÓN DE LA SECRETARÍA DE INFRAESTRUCTURA"},"address":{"streetAddress":"Washington","locality":"Monterrey","region":"Nuevo León","postalCode":"64010","countryName":"México"},"contactPoint":{"name":"Jesús Salvador Pérez Rodríguez","email":"salvador.perez @nuevoleon.gob.mx","telephone":"8120206730","url":"http://www.nl.gob.mx/dependencias"},"roles":["buyer"]}],"documents":[{"id":"9414","documentType":"projectApprovalOpinion","title":"Dictamen de aprobación del proyecto","description":"Dictamen de aprobación del proyecto","url":"http://si.nl.gob.mx/Acceso/DatosAbiertos//DocumentosPublicos/000010/Dictamen de aprobación del proyecto.pdf","datePublished":"2020-04-09T01:05:32-05:00","dateModified":"0001-01-01T00:00:00-06:00","format":"application/pdf","language":"es"},{"id":"9415","documentType":"projectPlan","title":"Plan financiero","description":"Plan financiero","url":"http://si.nl.gob.mx/Acceso/DatosAbiertos//DocumentosPublicos/000010/Plan financiero.PDF","datePublished":"2020-04-09T01:05:32-05:00","dateModified":"0001-01-01T00:00:00-06:00","format":"application/pdf","language":"es"}],"contractingProcesses":[{"id":"Release-ocds-7wj9x5-SINL-AD-003-2020","releases":[{"id":"ocds-7wj9x5-SINL-AD-003-2020-v001","tag":"planning,award,contract","date":"2020-04-09T13:40:48.527","url":"http://si.nl.gob.mx/Acceso/DatosAbiertos/000010/SINL-AD-003-2020/v001/Release-ocds-7wj9x5-SINL-AD-003-2020-v001-contract.json"}]},{"id":"Release-ocds-7wj9x5-SINL-AD-004-2020","releases":[{"id":"ocds-7wj9x5-SINL-AD-004-2020-v001","tag":"planning,award,contract","date":"2020-04-09T13:40:49.657","url":"http://si.nl.gob.mx/Acceso/DatosAbiertos/000010/SINL-AD-004-2020/v001/Release-ocds-7wj9x5-SINL-AD-004-2020-v001-contract.json"}]},{"id":"Release-ocds-7wj9x5-SINL-AD-005-2020","releases":[{"id":"ocds-7wj9x5-SINL-AD-005-2020-v001","tag":"planning,award,contract","date":"2020-04-09T13:40:51.127","url":"http://si.nl.gob.mx/Acceso/DatosAbiertos/000010/SINL-AD-005-2020/v001/Release-ocds-7wj9x5-SINL-AD-005-2020-v001-contract.json"}]},{"id":"Release-ocds-7wj9x5-SINL-AD-006-2020","releases":[{"id":"ocds-7wj9x5-SINL-AD-006-2020-v001","tag":"planning,award,contract","date":"2020-04-09T13:40:52.763","url":"http://si.nl.gob.mx/Acceso/DatosAbiertos/000010/SINL-AD-006-2020/v001/Release-ocds-7wj9x5-SINL-AD-006-2020-v001-contract.json"}]},{"id":"Release-ocds-7wj9x5-SINL-AD-007-2020","releases":[{"id":"ocds-7wj9x5-SINL-AD-007-2020-v001","tag":"planning,award,contract","date":"2020-04-09T13:40:54.357","url":"http://si.nl.gob.mx/Acceso/DatosAbiertos/000010/SINL-AD-007-2020/v001/Release-ocds-7wj9x5-SINL-AD-007-2020-v001-contract.json"}]},{"id":"Release-ocds-7wj9x5-SINL-AD-008-2020","releases":[{"id":"ocds-7wj9x5-SINL-AD-008-2020-v001","tag":"planning,award,contract","date":"2020-04-09T13:40:56.213","url":"http://si.nl.gob.mx/Acceso/DatosAbiertos/000010/SINL-AD-008-2020/v001/Release-ocds-7wj9x5-SINL-AD-008-2020-v001-contract.json"}]}],"completion":{"endDate":"2020-04-30T00:00:00-05:00","endDateDetails":"","finalValue":{"amount":50000000.0,"currency":"MXN"},"finalScope":""}}